city,lat,lng,country,iso2,population
Mumbai,19.0761,72.8775,India,IN,24973000
Kolkata,22.5675,88.37,India,IN,18502000
Bangalore,12.9789,77.5917,India,IN,15386000
Chennai,13.0825,80.275,India,IN,12395000
Hyderabad,17.385,78.4867,India,IN,10494000
Pune,18.5203,73.8567,India,IN,8231000
Jaipur,26.9,75.8,India,IN,3073350
New Delhi,28.6139,77.209,India,IN,249998